{"type": "FeatureCollection", "version": "draft", "features": [{"type": "Feature", "geometry": {"type": "Point", "coordinates": [2.292243, 48.840215]}, "properties": {"label": "192 Rue de Javel 75015 Paris", "score": 0.8053412987012987, "housenumber": "192", "id": "75115_4843_00192", "name": "192 Rue de Javel", "postcode": "75015", "citycode": "75115", "x": 648053.59, "y": 6860251.18, "city": "Paris", "district": "Paris 15e Arrondissement", "context": "75, Paris, \u00cele-de-France", "type": "housenumber", "importance": 0.82304, "street": "Rue de Javel"}}, {"type": "Feature", "geometry": {"type": "Point", "coordinates": [2.281424, 48.837584]}, "properties": {"label": "192 Rue de Lourmel 75015 Paris", "score": 0.5805539572192513, "housenumber": "192", "id": "75115_5814_00192", "name": "192 Rue de Lourmel", "postcode": "75015", "citycode": "75115", "x": 647256.88, "y": 6859965.81, "city": "Paris", "district": "Paris 15e Arrondissement", "context": "75, Paris, \u00cele-de-France", "type": "housenumber", "importance": 0.82727, "street": "Rue de Lourmel"}}, {"type": "Feature", "geometry": {"type": "Point", "coordinates": [2.308396, 48.841716]}, "properties": {"label": "192 Rue de Vaugirard 75015 Paris", "score": 0.554510909090909, "housenumber": "192", "id": "75115_9624_00192", "name": "192 Rue de Vaugirard", "postcode": "75015", "citycode": "75115", "x": 649240.58, "y": 6860407.57, "city": "Paris", "district": "Paris 15e Arrondissement", "context": "75, Paris, \u00cele-de-France", "type": "housenumber", "importance": 0.84962, "street": "Rue de Vaugirard"}}, {"type": "Feature", "geometry": {"type": "Point", "coordinates": [2.296272, 48.840777]}, "properties": {"label": "192 Rue Lecourbe 75015 Paris", "score": 0.5347010695187165, "housenumber": "192", "id": "75115_5456_00192", "name": "192 Rue Lecourbe", "postcode": "75015", "citycode": "75115", "x": 648349.85, "y": 6860311.02, "city": "Paris", "district": "Paris 15e Arrondissement", "context": "75, Paris, \u00cele-de-France", "type": "housenumber", "importance": 0.8523, "street": "Rue Lecourbe"}}, {"type": "Feature", "geometry": {"type": "Point", "coordinates": [2.292876, 48.849918]}, "properties": {"label": "Rue Juge 75015 Paris", "score": 0.5193706583072101, "id": "75115_5052", "name": "Rue Juge", "postcode": "75015", "citycode": "75115", "x": 648109.71, "y": 6861329.63, "city": "Paris", "district": "Paris 15e Arrondissement", "context": "75, Paris, \u00cele-de-France", "type": "street", "importance": 0.74756}}], "attribution": "BAN", "licence": "ETALAB-2.0", "query": "192 rue de jave 75015 